{
"type": "FeatureCollection",
"name": "outfitter_businesses",
"crs": { "type": "name", "properties": { "name": "urn:ogc:def:crs:OGC:1.3:CRS84" } },
"features": [
{ "type": "Feature", "properties": { "name": "Appalachian Sport", "city": "Marlinton, WV", "address": "3 Seneca Trail, Marlinton, WV 24954", "category": "outfitter_rental", "notes": "One-stop outfitter: bike/kayak/canoe rentals, fishing gear, shuttles, hunting/outdoor apparel. On the Greenbrier River Trail.", "in_corridor": true, "data_quality": "town-center approximation, not geocoded street address" }, "geometry": { "type": "Point", "coordinates": [ -80.0967, 38.2306 ] } },
{ "type": "Feature", "properties": { "name": "Dirtbean Hale (Dirtbean Cafe & Bike Shop)", "city": "Marlinton, WV", "address": "818 2nd Ave, Marlinton, WV 24954", "category": "bike_shop", "notes": "Full-service bike shop + cafe; rentals and repairs for the Greenbrier River Trail.", "in_corridor": true, "data_quality": "town-center approximation, not geocoded street address" }, "geometry": { "type": "Point", "coordinates": [ -80.0937, 38.2276 ] } },
{ "type": "Feature", "properties": { "name": "Blackwater Bikes", "city": "Davis, WV", "address": "685 William Ave, Davis, WV 26260", "category": "bike_shop", "notes": "Full-service bike shop since 1983; sales, rentals, repairs. Near Section 1/2 of the ALT.", "in_corridor": true, "data_quality": "town-center approximation, not geocoded street address" }, "geometry": { "type": "Point", "coordinates": [ -79.4639, 39.1306 ] } },
{ "type": "Feature", "properties": { "name": "Driftland Ski & Sport", "city": "Davis, WV", "address": "556 William Ave, Davis, WV 26260", "category": "ski_shop", "notes": "Ski/snowboard sales, rentals, and tuning, next to Davis Fire Hall.", "in_corridor": true, "data_quality": "town-center approximation, not geocoded street address" }, "geometry": { "type": "Point", "coordinates": [ -79.4609, 39.1276 ] } },
{ "type": "Feature", "properties": { "name": "B & J Pawn and Sportshop", "city": "Elkins, WV", "address": "313 3rd St, Elkins, WV 26241", "category": "sporting_goods", "notes": "Pawn shop + sporting goods (guns, archery, fishing). Regional hub, ~10-15mi from nearest ALT section.", "in_corridor": false, "data_quality": "town-center approximation, not geocoded street address" }, "geometry": { "type": "Point", "coordinates": [ -79.8478, 38.9251 ] } },
{ "type": "Feature", "properties": { "name": "Broughton's Sports & Trophy World", "city": "Elkins, WV", "address": "334 Randolph Ave, Elkins, WV 26241", "category": "sporting_goods", "notes": "Sporting goods, team uniforms, trophies. Regional hub.", "in_corridor": false, "data_quality": "town-center approximation, not geocoded street address" }, "geometry": { "type": "Point", "coordinates": [ -79.8448, 38.9281 ] } },
{ "type": "Feature", "properties": { "name": "Dunham's Sports", "city": "Elkins, WV", "address": "41 Iris Ln, Elkins, WV 26241", "category": "sporting_goods", "notes": "National chain sporting goods store. Regional hub.", "in_corridor": false, "data_quality": "town-center approximation, not geocoded street address" }, "geometry": { "type": "Point", "coordinates": [ -79.8508, 38.9221 ] } },
{ "type": "Feature", "properties": { "name": "Edward's Sporting Goods", "city": "Lewisburg, WV", "address": "158 Beard St, Lewisburg, WV 24901", "category": "sporting_goods", "notes": "Sporting goods incl. guns/knives. Regional hub near Section 4 roadwalk and southern GRT terminus.", "in_corridor": false, "data_quality": "town-center approximation, not geocoded street address" }, "geometry": { "type": "Point", "coordinates": [ -80.4459, 37.8001 ] } },
{ "type": "Feature", "properties": { "name": "Free Spirit Adventures & Bike Sales", "city": "Lewisburg, WV", "address": "Lewisburg, WV 24901 (exact address not found)", "category": "bike_shop", "notes": "Bike shop, rentals/sales/repairs, on the Greenbrier River Trail.", "in_corridor": false, "data_quality": "town-center approximation, not geocoded street address" }, "geometry": { "type": "Point", "coordinates": [ -80.4429, 37.8031 ] } },
{ "type": "Feature", "properties": { "name": "Elk River Snowboard and Ski", "city": "Snowshoe, WV", "address": "1 Soaring Eagle Dr, Snowshoe, WV 26209", "category": "ski_shop", "notes": "Ski/snowboard rental & retail at Snowshoe Mountain Resort (Soaring Eagle Lodge); second 'valley shop' location in Slatyfork. ~20mi from Marlinton/ALT.", "in_corridor": false, "data_quality": "town-center approximation, not geocoded street address" }, "geometry": { "type": "Point", "coordinates": [ -79.9947, 38.4089 ] } },
{ "type": "Feature", "properties": { "name": "Four Seasons Outfitters & Adventure Sports", "city": "Richwood, WV", "address": "Richwood, WV (exact address not found)", "category": "outfitter_rental", "notes": "Bike shop / outdoor outfitter. Regional hub south of the corridor (Cranberry Glades/Highland Scenic Hwy area).", "in_corridor": false, "data_quality": "town-center approximation, not geocoded street address" }, "geometry": { "type": "Point", "coordinates": [ -80.5398, 38.2253 ] } }
]
}
