{
"type": "FeatureCollection",
"name": "greenbrier_river_trail_amenities",
"crs": { "type": "name", "properties": { "name": "urn:ogc:def:crs:OGC:1.3:CRS84" } },
"features": [
{ "type": "Feature", "properties": { "mile_marker": 80.4, "name": "80.4 Bike Repair Station", "label": "Bike Repair Station", "category": "bike_repair" }, "geometry": { "type": "Point", "coordinates": [ -79.9146825, 38.3965142 ] } },
{ "type": "Feature", "properties": { "mile_marker": 78.5, "name": "78.5 Camp Site", "label": "Camp Site", "category": "campsite_shelter" }, "geometry": { "type": "Point", "coordinates": [ -79.9263001, 38.3736316 ] } },
{ "type": "Feature", "properties": { "mile_marker": 71.1, "name": "71.1 Bike Repair Station", "label": "Bike Repair Station", "category": "bike_repair" }, "geometry": { "type": "Point", "coordinates": [ -79.9705279, 38.331279 ] } },
{ "type": "Feature", "properties": { "mile_marker": 69.6, "name": "69.6 Camping/Shelter", "label": "Camping/Shelter", "category": "campsite_shelter" }, "geometry": { "type": "Point", "coordinates": [ -79.9735838, 38.3180771 ] } },
{ "type": "Feature", "properties": { "mile_marker": 69.6, "name": "69.6 Bathroom", "label": "Bathroom", "category": "bathroom" }, "geometry": { "type": "Point", "coordinates": [ -79.9734818, 38.3183654 ] } },
{ "type": "Feature", "properties": { "mile_marker": 67.1, "name": "67.1 Covered Picnic Table", "label": "Covered Picnic Table", "category": "picnic" }, "geometry": { "type": "Point", "coordinates": [ -79.9895116, 38.2926499 ] } },
{ "type": "Feature", "properties": { "mile_marker": 65.2, "name": "65.2 Sharps Tunnel", "label": "Sharps Tunnel", "category": "landmark" }, "geometry": { "type": "Point", "coordinates": [ -80.0038934, 38.2838511 ] } },
{ "type": "Feature", "properties": { "mile_marker": 63.8, "name": "63.8 Camping/Shelter", "label": "Camping/Shelter", "category": "campsite_shelter" }, "geometry": { "type": "Point", "coordinates": [ -80.0186992, 38.2754404 ] } },
{ "type": "Feature", "properties": { "mile_marker": 63.8, "name": "63.8 Bathroom", "label": "Bathroom", "category": "bathroom" }, "geometry": { "type": "Point", "coordinates": [ -80.0175968, 38.2751053 ] } },
{ "type": "Feature", "properties": { "mile_marker": 57.5, "name": "57.5 Picnic Table", "label": "Picnic Table", "category": "picnic" }, "geometry": { "type": "Point", "coordinates": [ -80.0430238, 38.2433015 ] } },
{ "type": "Feature", "properties": { "mile_marker": 56.1, "name": "56.1 Bike Repair Station", "label": "Bike Repair Station", "category": "bike_repair" }, "geometry": { "type": "Point", "coordinates": [ -80.0932351, 38.2223455 ] } },
{ "type": "Feature", "properties": { "mile_marker": 55.1, "name": "55.1 Stillwell Park Camping", "label": "Stillwell Park Camping", "category": "campsite_shelter" }, "geometry": { "type": "Point", "coordinates": [ -80.0991464, 38.2094579 ] } },
{ "type": "Feature", "properties": { "mile_marker": 55.1, "name": "55.1 Bathroom", "label": "Bathroom", "category": "bathroom" }, "geometry": { "type": "Point", "coordinates": [ -80.0994088, 38.2094398 ] } },
{ "type": "Feature", "properties": { "mile_marker": 54.0, "name": "54 Picnic Table", "label": "Picnic Table", "category": "picnic" }, "geometry": { "type": "Point", "coordinates": [ -80.0982035, 38.1955023 ] } },
{ "type": "Feature", "properties": { "mile_marker": 52.8, "name": "52.8 Picnic Table", "label": "Picnic Table", "category": "picnic" }, "geometry": { "type": "Point", "coordinates": [ -80.1228791, 38.1903446 ] } },
{ "type": "Feature", "properties": { "mile_marker": 51.5, "name": "51.5 Campsite", "label": "Campsite", "category": "campsite_shelter" }, "geometry": { "type": "Point", "coordinates": [ -80.1255231, 38.182016 ] } },
{ "type": "Feature", "properties": { "mile_marker": 49.3, "name": "49.3 Beaver Creek Campsite", "label": "Beaver Creek Campsite", "category": "campsite_shelter" }, "geometry": { "type": "Point", "coordinates": [ -80.1412513, 38.1577268 ] } },
{ "type": "Feature", "properties": { "mile_marker": 49.3, "name": "49.3 Bathroom", "label": "Bathroom", "category": "bathroom" }, "geometry": { "type": "Point", "coordinates": [ -80.1414524, 38.157402 ] } },
{ "type": "Feature", "properties": { "mile_marker": 47.9, "name": "47.9 Watoga Bridge: Swimming Hole", "label": "Watoga Bridge: Swimming Hole", "category": "landmark" }, "geometry": { "type": "Point", "coordinates": [ -80.1498196, 38.1416496 ] } },
{ "type": "Feature", "properties": { "mile_marker": 47.9, "name": "47.9 Watoga Bridge:Picnic Bench", "label": "Watoga Bridge:Picnic Bench", "category": "picnic" }, "geometry": { "type": "Point", "coordinates": [ -80.1499517, 38.1415985 ] } },
{ "type": "Feature", "properties": { "mile_marker": 45.5, "name": "45.5 Bike Repair Station", "label": "Bike Repair Station", "category": "bike_repair" }, "geometry": { "type": "Point", "coordinates": [ -80.1752903, 38.1267038 ] } },
{ "type": "Feature", "properties": { "mile_marker": 43.0, "name": "43 Picnic Table", "label": "Picnic Table", "category": "picnic" }, "geometry": { "type": "Point", "coordinates": [ -80.1754131, 38.1085559 ] } },
{ "type": "Feature", "properties": { "mile_marker": 40.9, "name": "40.9 Campsite", "label": "Campsite", "category": "campsite_shelter" }, "geometry": { "type": "Point", "coordinates": [ -80.2245745, 38.0979278 ] } },
{ "type": "Feature", "properties": { "mile_marker": 33.8, "name": "33.8 Campsite/Shelter", "label": "Campsite/Shelter", "category": "campsite_shelter" }, "geometry": { "type": "Point", "coordinates": [ -80.241902, 38.0343584 ] } },
{ "type": "Feature", "properties": { "mile_marker": 33.8, "name": "33.8 Bathroom", "label": "Bathroom", "category": "bathroom" }, "geometry": { "type": "Point", "coordinates": [ -80.2420147, 38.0344556 ] } },
{ "type": "Feature", "properties": { "mile_marker": 32.1, "name": "32.1 Campsite", "label": "Campsite", "category": "campsite_shelter" }, "geometry": { "type": "Point", "coordinates": [ -80.253685, 38.0242324 ] } },
{ "type": "Feature", "properties": { "mile_marker": 31.0, "name": "31 Droop Mountain Tunnel", "label": "Droop Mountain Tunnel", "category": "landmark" }, "geometry": { "type": "Point", "coordinates": [ -80.2732815, 38.0208812 ] } },
{ "type": "Feature", "properties": { "mile_marker": 28.5, "name": "28.5 Campsite/ Shelter", "label": "Campsite/ Shelter", "category": "campsite_shelter" }, "geometry": { "type": "Point", "coordinates": [ -80.301562, 38.01277 ] } },
{ "type": "Feature", "properties": { "mile_marker": 28.5, "name": "28.5 Bathroom", "label": "Bathroom", "category": "bathroom" }, "geometry": { "type": "Point", "coordinates": [ -80.3016208, 38.0128882 ] } },
{ "type": "Feature", "properties": { "mile_marker": 25.0, "name": "25 Bathroom", "label": "Bathroom", "category": "bathroom" }, "geometry": { "type": "Point", "coordinates": [ -80.3541214, 37.9902373 ] } },
{ "type": "Feature", "properties": { "mile_marker": 25.0, "name": "25 Picnic benches under shelter", "label": "Picnic benches under shelter", "category": "campsite_shelter" }, "geometry": { "type": "Point", "coordinates": [ -80.3539586, 37.9900308 ] } },
{ "type": "Feature", "properties": { "mile_marker": 25.0, "name": "25 Bike Repair Station", "label": "Bike Repair Station", "category": "bike_repair" }, "geometry": { "type": "Point", "coordinates": [ -80.3562271, 37.9902309 ] } },
{ "type": "Feature", "properties": { "mile_marker": 24.0, "name": "24 Picnic Table", "label": "Picnic Table", "category": "picnic" }, "geometry": { "type": "Point", "coordinates": [ -80.3607235, 37.9825552 ] } },
{ "type": "Feature", "properties": { "mile_marker": 20.5, "name": "20.5 Campsite", "label": "Campsite", "category": "campsite_shelter" }, "geometry": { "type": "Point", "coordinates": [ -80.341735, 37.9388245 ] } },
{ "type": "Feature", "properties": { "mile_marker": 20.5, "name": "20.5 Bathroom", "label": "Bathroom", "category": "bathroom" }, "geometry": { "type": "Point", "coordinates": [ -80.3419142, 37.9394856 ] } },
{ "type": "Feature", "properties": { "mile_marker": 14.8, "name": "14.8 Stairs to river", "label": "Stairs to river", "category": "other" }, "geometry": { "type": "Point", "coordinates": [ -80.3270649, 37.9033086 ] } },
{ "type": "Feature", "properties": { "mile_marker": 13.0, "name": "13 The \"Hill\", Picnic Tables and Bench", "label": "The \"Hill\", Picnic Tables and Bench", "category": "picnic" }, "geometry": { "type": "Point", "coordinates": [ -80.3416326, 37.8812206 ] } },
{ "type": "Feature", "properties": { "mile_marker": 9.5, "name": "9.5 Campsite/Shelter", "label": "Campsite/Shelter", "category": "campsite_shelter" }, "geometry": { "type": "Point", "coordinates": [ -80.3465721, 37.848849 ] } },
{ "type": "Feature", "properties": { "mile_marker": 9.5, "name": "9.5 Bathroom", "label": "Bathroom", "category": "bathroom" }, "geometry": { "type": "Point", "coordinates": [ -80.3465746, 37.848897 ] } },
{ "type": "Feature", "properties": { "mile_marker": 7.5, "name": "7.5 Picnic Table", "label": "Picnic Table", "category": "picnic" }, "geometry": { "type": "Point", "coordinates": [ -80.3708215, 37.8454018 ] } },
{ "type": "Feature", "properties": { "mile_marker": 5.0, "name": "5 Stairs to river", "label": "Stairs to river", "category": "other" }, "geometry": { "type": "Point", "coordinates": [ -80.3740674, 37.8150031 ] } },
{ "type": "Feature", "properties": { "mile_marker": 4.7, "name": "4.7 Campsite", "label": "Campsite", "category": "campsite_shelter" }, "geometry": { "type": "Point", "coordinates": [ -80.3755994, 37.8140188 ] } },
{ "type": "Feature", "properties": { "mile_marker": 4.7, "name": "4.7 Picnic Table", "label": "Picnic Table", "category": "picnic" }, "geometry": { "type": "Point", "coordinates": [ -80.3756394, 37.8140313 ] } },
{ "type": "Feature", "properties": { "mile_marker": 4.7, "name": "4.7 Bathroom", "label": "Bathroom", "category": "bathroom" }, "geometry": { "type": "Point", "coordinates": [ -80.3755898, 37.8140662 ] } },
{ "type": "Feature", "properties": { "mile_marker": 4.3, "name": "4.3 Stairs to River", "label": "Stairs to River", "category": "other" }, "geometry": { "type": "Point", "coordinates": [ -80.3797619, 37.8096265 ] } },
{ "type": "Feature", "properties": { "mile_marker": 3.5, "name": "3.5 Picnic Table", "label": "Picnic Table", "category": "picnic" }, "geometry": { "type": "Point", "coordinates": [ -80.3772191, 37.7975698 ] } },
{ "type": "Feature", "properties": { "mile_marker": 3.5, "name": "3.5 Bike Repair Station", "label": "Bike Repair Station", "category": "bike_repair" }, "geometry": { "type": "Point", "coordinates": [ -80.377254, 37.7975252 ] } },
{ "type": "Feature", "properties": { "mile_marker": 3.1, "name": "3.1 Bike Repair Station", "label": "Bike Repair Station", "category": "bike_repair" }, "geometry": { "type": "Point", "coordinates": [ -80.3803684, 37.7938072 ] } },
{ "type": "Feature", "properties": { "mile_marker": 3.1, "name": "3.1 Picnic Table", "label": "Picnic Table", "category": "picnic" }, "geometry": { "type": "Point", "coordinates": [ -80.3803872, 37.7937373 ] } },
{ "type": "Feature", "properties": { "mile_marker": 80.4, "name": "80.4 NEW Cass Parking/Trailhead", "label": "NEW Cass Parking/Trailhead", "category": "trail_access" }, "geometry": { "type": "Point", "coordinates": [ -79.9145645, 38.3966798 ] } },
{ "type": "Feature", "properties": { "mile_marker": 80.0, "name": "80 Old Cass Parking/Trailhead", "label": "Old Cass Parking/Trailhead", "category": "trail_access" }, "geometry": { "type": "Point", "coordinates": [ -79.9220362, 38.392003 ] } },
{ "type": "Feature", "properties": { "mile_marker": 76.8, "name": "76.8 Sitlington Parking/Trail Access", "label": "Sitlington Parking/Trail Access", "category": "trail_access" }, "geometry": { "type": "Point", "coordinates": [ -79.9277101, 38.3584853 ] } },
{ "type": "Feature", "properties": { "mile_marker": 71.1, "name": "71.1Cloverlick Parking/Trail Access", "label": "Cloverlick Parking/Trail Access", "category": "trail_access" }, "geometry": { "type": "Point", "coordinates": [ -79.9706218, 38.331286 ] } },
{ "type": "Feature", "properties": { "mile_marker": 62.4, "name": "62.4 Thorny Creek Parking/Trail Access", "label": "Thorny Creek Parking/Trail Access", "category": "trail_access" }, "geometry": { "type": "Point", "coordinates": [ -80.0369976, 38.2529045 ] } },
{ "type": "Feature", "properties": { "mile_marker": 56.0, "name": "56 Marlinton Parking/Trail Access", "label": "Marlinton Parking/Trail Access", "category": "trail_access" }, "geometry": { "type": "Point", "coordinates": [ -80.0942135, 38.2217384 ] } },
{ "type": "Feature", "properties": { "mile_marker": 55.1, "name": "55.1 Stillwell Park Parking", "label": "Stillwell Park Parking", "category": "trail_access" }, "geometry": { "type": "Point", "coordinates": [ -80.0984486, 38.2097728 ] } },
{ "type": "Feature", "properties": { "mile_marker": 52.5, "name": "52.5 Buckeye Trailhead Parking/Trail Access", "label": "Buckeye Trailhead Parking/Trail Access", "category": "trail_access" }, "geometry": { "type": "Point", "coordinates": [ -80.1278621, 38.1876819 ] } },
{ "type": "Feature", "properties": { "mile_marker": 45.5, "name": "45.5 Seebert Trailhead Parking", "label": "Seebert Trailhead Parking", "category": "trail_access" }, "geometry": { "type": "Point", "coordinates": [ -80.175343, 38.1266829 ] } },
{ "type": "Feature", "properties": { "mile_marker": 41.5, "name": "41.5 Burnsides Parking/Trail Access", "label": "Burnsides Parking/Trail Access", "category": "trail_access" }, "geometry": { "type": "Point", "coordinates": [ -80.2075712, 38.1091061 ] } },
{ "type": "Feature", "properties": { "mile_marker": 38.5, "name": "38.5 Beard Parking/Trail Access", "label": "Beard Parking/Trail Access", "category": "trail_access" }, "geometry": { "type": "Point", "coordinates": [ -80.2274595, 38.0765899 ] } },
{ "type": "Feature", "properties": { "mile_marker": 30.5, "name": "30.5 Rorer Trailhead Parking", "label": "Rorer Trailhead Parking", "category": "trail_access" }, "geometry": { "type": "Point", "coordinates": [ -80.2764606, 38.0250617 ] } },
{ "type": "Feature", "properties": { "mile_marker": 29.5, "name": "29.5 Horrock Trailhead Parking", "label": "Horrock Trailhead Parking", "category": "trail_access" }, "geometry": { "type": "Point", "coordinates": [ -80.2938223, 38.0264323 ] } },
{ "type": "Feature", "properties": { "mile_marker": 25.0, "name": "25 Renick Park Parking", "label": "Renick Park Parking", "category": "trail_access" }, "geometry": { "type": "Point", "coordinates": [ -80.3537421, 37.9904 ] } },
{ "type": "Feature", "properties": { "mile_marker": 24.9, "name": "24.9 Renick Parking", "label": "Renick Parking", "category": "trail_access" }, "geometry": { "type": "Point", "coordinates": [ -80.3567026, 37.9899124 ] } },
{ "type": "Feature", "properties": { "mile_marker": 21.5, "name": "21.5 Spring Creek Parking", "label": "Spring Creek Parking", "category": "trail_access" }, "geometry": { "type": "Point", "coordinates": [ -80.3467273, 37.9512519 ] } },
{ "type": "Feature", "properties": { "mile_marker": 14.2, "name": "14.2  Anthony Rd. Parking", "label": "Anthony Rd. Parking", "category": "trail_access" }, "geometry": { "type": "Point", "coordinates": [ -80.325894, 37.8967786 ] } },
{ "type": "Feature", "properties": { "mile_marker": 11.0, "name": "11 Keister Rd Parking/Trail Access", "label": "Keister Rd Parking/Trail Access", "category": "trail_access" }, "geometry": { "type": "Point", "coordinates": [ -80.3425383, 37.8628833 ] } },
{ "type": "Feature", "properties": { "mile_marker": 5.7, "name": "5.7 Harper Rd. Parking/Trail Access", "label": "Harper Rd. Parking/Trail Access", "category": "trail_access" }, "geometry": { "type": "Point", "coordinates": [ -80.3616314, 37.8231033 ] } },
{ "type": "Feature", "properties": { "mile_marker": 3.5, "name": "3.5 Caldwell Parking Site 2", "label": "Caldwell Parking Site 2", "category": "trail_access" }, "geometry": { "type": "Point", "coordinates": [ -80.3772928, 37.797494 ] } },
{ "type": "Feature", "properties": { "mile_marker": 3.1, "name": "3.1 Caldwell Trailhead Parking Lot", "label": "Caldwell Trailhead Parking Lot", "category": "trail_access" }, "geometry": { "type": "Point", "coordinates": [ -80.3804585, 37.7938128 ] } },
{ "type": "Feature", "properties": { "mile_marker": 80.5, "name": "80.5 Cass Scenic Railroad", "label": "Cass Scenic Railroad", "category": "other" }, "geometry": { "type": "Point", "coordinates": [ -79.9142583, 38.3973349 ] } },
{ "type": "Feature", "properties": { "mile_marker": 71.1, "name": "71.1 Restored Clover Lick Depot", "label": "Restored Clover Lick Depot", "category": "landmark" }, "geometry": { "type": "Point", "coordinates": [ -79.9705511, 38.3310443 ] } },
{ "type": "Feature", "properties": { "mile_marker": 65.2, "name": "65.2 Sharps Tunnel and Bridge", "label": "Sharps Tunnel and Bridge", "category": "landmark" }, "geometry": { "type": "Point", "coordinates": [ -80.0040289, 38.2832148 ] } },
{ "type": "Feature", "properties": { "mile_marker": 56.1, "name": "56.1 Marlinton Station", "label": "Marlinton Station", "category": "landmark" }, "geometry": { "type": "Point", "coordinates": [ -80.0925812, 38.2228734 ] } },
{ "type": "Feature", "properties": { "mile_marker": 47.9, "name": "47.9 Watoga Bridge", "label": "Watoga Bridge", "category": "landmark" }, "geometry": { "type": "Point", "coordinates": [ -80.1498432, 38.1418877 ] } },
{ "type": "Feature", "properties": { "mile_marker": 31.0, "name": "31 Droop Mountain Tunnel", "label": "Droop Mountain Tunnel", "category": "landmark" }, "geometry": { "type": "Point", "coordinates": [ -80.2732895, 38.0207369 ] } },
{ "type": "Feature", "properties": { "mile_marker": 54.0, "name": "54 Wyatt Nature Trail", "label": "Wyatt Nature Trail", "category": "other" }, "geometry": { "type": "Point", "coordinates": [ -80.0982291, 38.1955789 ] } },
{ "type": "Feature", "properties": { "mile_marker": 35.0, "name": "35 Spice Run Wilderness", "label": "Spice Run Wilderness", "category": "other" }, "geometry": { "type": "Point", "coordinates": [ -80.2338142, 38.0429813 ] } },
{ "type": "Feature", "properties": { "mile_marker": null, "name": "EJ's Cottages Camping and Stabling", "label": "EJ's Cottages Camping and Stabling", "category": "campsite_shelter" }, "geometry": { "type": "Point", "coordinates": [ -79.9281385, 38.3585594 ] } },
{ "type": "Feature", "properties": { "mile_marker": null, "name": "River Trail Hollow Campground", "label": "River Trail Hollow Campground", "category": "campsite_shelter" }, "geometry": { "type": "Point", "coordinates": [ -80.1745749, 38.1380793 ] } },
{ "type": "Feature", "properties": { "mile_marker": 24.9, "name": "24.9 Boat Launch", "label": "Boat Launch", "category": "trail_access" }, "geometry": { "type": "Point", "coordinates": [ -80.3567468, 37.9898402 ] } },
{ "type": "Feature", "properties": { "mile_marker": 21.5, "name": "21.5 Spring Creek Boat Launch", "label": "Spring Creek Boat Launch", "category": "trail_access" }, "geometry": { "type": "Point", "coordinates": [ -80.3457931, 37.9512672 ] } },
{ "type": "Feature", "properties": { "mile_marker": 14.2, "name": "14.2 Anthony Boat Launch", "label": "Anthony Boat Launch", "category": "trail_access" }, "geometry": { "type": "Point", "coordinates": [ -80.3250833, 37.8969807 ] } },
{ "type": "Feature", "properties": { "mile_marker": null, "name": "Marlinton Depot", "label": "Marlinton Depot", "category": "landmark" }, "geometry": { "type": "Point", "coordinates": [ -80.0926123, 38.2228219 ] } }
]
}
