{"type": "FeatureCollection", "name": "public_recreation_lands", "crs": {"type": "name", "properties": {"name": "urn:ogc:def:crs:OGC:1.3:CRS84"}}, "features": [{"type": "Feature", "properties": {"name": "Blackwater Falls State Park", "facility_type": "state_park", "agency": "WV DNR", "notes": "Section 1 southern terminus area; lodge, cabins, trails", "data_quality": "manually curated - verify against PAD-US/agency GIS", "water_system_count": 1.0, "water_system_pop_served": 0.0, "water_system_connections": 30.0, "water_system_names": "BLACKWATER FALLS STATE PARK (NTNCWS)"}, "geometry": {"type": "Point", "coordinates": [-79.4961, 39.1156]}}, {"type": "Feature", "properties": {"name": "Canaan Valley Resort State Park", "facility_type": "state_park", "agency": "WV DNR", "notes": "Near Canaan Valley trailhead waypoint", "data_quality": "manually curated - verify against PAD-US/agency GIS", "water_system_count": 2.0, "water_system_pop_served": 3683.0, "water_system_connections": 72.0, "water_system_names": "CANAAN VALLEY STATE PARK (CWS); CANAAN VALLEY STATE PARK (NTNCWS)"}, "geometry": {"type": "Point", "coordinates": [-79.4458, 39.0181]}}, {"type": "Feature", "properties": {"name": "Cathedral State Park", "facility_type": "state_park", "agency": "WV DNR", "notes": "Old-growth hemlock forest near Aurora, day-use only", "data_quality": "manually curated - verify against PAD-US/agency GIS", "water_system_count": 1.0, "water_system_pop_served": 27.0, "water_system_connections": 3.0, "water_system_names": "CATHEDRAL STATE PARK (TNCWS)"}, "geometry": {"type": "Point", "coordinates": [-79.4283, 39.4928]}}, {"type": "Feature", "properties": {"name": "Kumbrabow State Forest", "facility_type": "state_forest", "agency": "WV Division of Forestry", "notes": "Highest-elevation state forest in WV; Section 2 area", "data_quality": "manually curated - verify against PAD-US/agency GIS", "water_system_count": null, "water_system_pop_served": null, "water_system_connections": null, "water_system_names": null}, "geometry": {"type": "Point", "coordinates": [-80.0153, 38.7206]}}, {"type": "Feature", "properties": {"name": "Cass Scenic Railroad State Park", "facility_type": "state_park", "agency": "WV DNR", "notes": "Section 2/3 boundary; historic logging railroad, cabins", "data_quality": "manually curated - verify against PAD-US/agency GIS", "water_system_count": 1.0, "water_system_pop_served": 555.0, "water_system_connections": 69.0, "water_system_names": "CASS SCENIC RAILROAD (CWS)"}, "geometry": {"type": "Point", "coordinates": [-79.9162, 38.3958]}}, {"type": "Feature", "properties": {"name": "Seneca State Forest", "facility_type": "state_forest", "agency": "WV Division of Forestry", "notes": "WV's oldest state forest; cabins, camping, near Section 3", "data_quality": "manually curated - verify against PAD-US/agency GIS", "water_system_count": null, "water_system_pop_served": null, "water_system_connections": null, "water_system_names": null}, "geometry": {"type": "Point", "coordinates": [-79.965, 38.37]}}, {"type": "Feature", "properties": {"name": "Watoga State Park", "facility_type": "state_park", "agency": "WV DNR", "notes": "WV's largest state park; Section 3 area, campground waypoint", "data_quality": "manually curated - verify against PAD-US/agency GIS", "water_system_count": null, "water_system_pop_served": null, "water_system_connections": null, "water_system_names": null}, "geometry": {"type": "Point", "coordinates": [-80.13, 38.1167]}}, {"type": "Feature", "properties": {"name": "Calvin Price State Forest", "facility_type": "state_forest", "agency": "WV Division of Forestry", "notes": "Largely undeveloped; eastern Pocahontas/Greenbrier counties", "data_quality": "manually curated - verify against PAD-US/agency GIS", "water_system_count": null, "water_system_pop_served": null, "water_system_connections": null, "water_system_names": null}, "geometry": {"type": "Point", "coordinates": [-80.25, 38.07]}}, {"type": "Feature", "properties": {"name": "Droop Mountain Battlefield State Park", "facility_type": "state_park", "agency": "WV DNR", "notes": "Civil War site near Hillsboro, scenic overlook tower", "data_quality": "manually curated - verify against PAD-US/agency GIS", "water_system_count": 1.0, "water_system_pop_served": 25.0, "water_system_connections": 10.0, "water_system_names": "DROOP MOUNTAIN BATTLEFIELD STATE PARK (TNCWS)"}, "geometry": {"type": "Point", "coordinates": [-80.3175, 38.0825]}}, {"type": "Feature", "properties": {"name": "Beartown State Park", "facility_type": "state_park", "agency": "WV DNR", "notes": "Boardwalk through sandstone formations, day-use only", "data_quality": "manually curated - verify against PAD-US/agency GIS", "water_system_count": 1.0, "water_system_pop_served": 25.0, "water_system_connections": 10.0, "water_system_names": "BEAR TOWN STATE PARK - HP (TNCWS)"}, "geometry": {"type": "Point", "coordinates": [-80.27, 38.055]}}, {"type": "Feature", "properties": {"name": "Greenbrier State Forest", "facility_type": "state_forest", "agency": "WV Division of Forestry", "notes": "Near White Sulphur Springs, Section 4 area", "data_quality": "manually curated - verify against PAD-US/agency GIS", "water_system_count": null, "water_system_pop_served": null, "water_system_connections": null, "water_system_names": null}, "geometry": {"type": "Point", "coordinates": [-80.3333, 37.7394]}}, {"type": "Feature", "properties": {"name": "Green Bank Observatory", "facility_type": "federal_research_facility", "agency": "NSF / Associated Universities, Inc.", "notes": "Robert C. Byrd Green Bank Telescope; surrounded by Monongahela NF; visitor center/tours", "data_quality": "manually curated - verify against PAD-US/agency GIS", "water_system_count": 1.0, "water_system_pop_served": 25.0, "water_system_connections": 10.0, "water_system_names": "NATIONAL RADIO ASTRONOMY OBSERVATORY (TNCWS)"}, "geometry": {"type": "Point", "coordinates": [-79.8398, 38.4332]}}, {"type": "Feature", "properties": {"name": "Gaudineer Scenic Area (Mon. NF)", "facility_type": "national_forest_scenic_area", "agency": "USFS - Monongahela NF", "notes": "Old-growth red spruce; near Gaudineer N/S trailhead waypoints", "data_quality": "manually curated - verify against PAD-US/agency GIS", "water_system_count": null, "water_system_pop_served": null, "water_system_connections": null, "water_system_names": null}, "geometry": {"type": "Point", "coordinates": [-79.84, 38.68]}}, {"type": "Feature", "properties": {"name": "Lake Sherwood Recreation Area (Mon. NF)", "facility_type": "national_forest_recreation_area", "agency": "USFS - Monongahela NF", "notes": "Section 3/4 boundary area, USFS lake recreation area", "data_quality": "manually curated - verify against PAD-US/agency GIS", "water_system_count": null, "water_system_pop_served": null, "water_system_connections": null, "water_system_names": null}, "geometry": {"type": "Point", "coordinates": [-80.365, 37.785]}}, {"type": "Feature", "geometry": {"type": "Point", "coordinates": [-79.7878, 39.6556]}, "properties": {"name": "Coopers Rock State Forest", "facility_type": "state_forest", "agency": "WV Division of Forestry", "notes": "Section 1 gateway; 12,747 acres; rock overlooks, hiking, camping, climbing near I-68", "data_quality": "coordinates from Apple Maps / WVDOF; verified in corridor"}}, {"type": "Feature", "geometry": {"type": "Point", "coordinates": [-79.7486, 39.5967]}, "properties": {"name": "Cheat Canyon Wildlife Management Area", "facility_type": "wildlife_management_area", "agency": "WV DNR", "notes": "3,836 acres on Cheat River canyon near Albright; whitewater access, hunting, hiking; purchased 2014", "data_quality": "coordinates from Wikipedia; verified in corridor"}}, {"type": "Feature", "geometry": {"type": "Point", "coordinates": [-79.3889, 39.1014]}, "properties": {"name": "Canaan Valley National Wildlife Refuge", "facility_type": "national_wildlife_refuge", "agency": "US Fish & Wildlife Service", "notes": "16,613 acres; largest high-elevation wetland complex in eastern US; birding, wildlife observation, hunting; Tucker County", "data_quality": "coordinates from Wikipedia / USFWS; verified in corridor"}}, {"type": "Feature", "geometry": {"type": "Point", "coordinates": [-79.3681, 38.9958]}, "properties": {"name": "Dolly Sods Wilderness", "facility_type": "national_forest_wilderness", "agency": "USFS - Monongahela NF", "notes": "17,776 acres; high-altitude heath barrens, WWII-era bombing range; Section 1 area; 0.7mi from corridor", "data_quality": "coordinates from Wikipedia; iconic Mon NF wilderness, confirmed for study"}}, {"type": "Feature", "geometry": {"type": "Point", "coordinates": [-79.6536, 39.0328]}, "properties": {"name": "Otter Creek Wilderness", "facility_type": "national_forest_wilderness", "agency": "USFS - Monongahela NF", "notes": "20,698 acres; Section 1/2 corridor; old-growth hemlock, remote backcountry; Tucker/Randolph counties", "data_quality": "coordinates from Wikipedia; verified in corridor"}}, {"type": "Feature", "geometry": {"type": "Point", "coordinates": [-79.6731, 38.7575]}, "properties": {"name": "Laurel Fork North Wilderness", "facility_type": "national_forest_wilderness", "agency": "USFS - Monongahela NF", "notes": "6,055 acres; Randolph County; 9.5mi of trails along Laurel Fork river; Section 2 area", "data_quality": "coordinates from Wikipedia; verified in corridor"}}, {"type": "Feature", "geometry": {"type": "Point", "coordinates": [-79.7186, 38.7119]}, "properties": {"name": "Laurel Fork South Wilderness", "facility_type": "national_forest_wilderness", "agency": "USFS - Monongahela NF", "notes": "5,784 acres; Randolph County; 9mi of trails; separated from North by County Route 40; Section 2 area", "data_quality": "coordinates from Wikipedia; verified in corridor"}}, {"type": "Feature", "geometry": {"type": "Point", "coordinates": [-79.5328, 38.6997]}, "properties": {"name": "Spruce Knob-Seneca Rocks NRA", "facility_type": "national_recreation_area", "agency": "USFS - Monongahela NF", "notes": "100,000 acres; includes WV's highest point (4,863ft) and premier rock climbing at Seneca Rocks; Pendleton County; 7mi from corridor", "data_quality": "coordinates from Wikipedia (Spruce Knob summit); iconic NRA, confirmed for study"}}, {"type": "Feature", "geometry": {"type": "Point", "coordinates": [-80.3325, 38.2767]}, "properties": {"name": "Cranberry Wilderness", "facility_type": "national_forest_wilderness", "agency": "USFS - Monongahela NF", "notes": "47,815 acres; largest eastern US USFS wilderness; Pocahontas/Webster counties; black bear sanctuary; 8.4mi from corridor", "data_quality": "coordinates from Wikipedia; 8.4mi outside 5mi corridor buffer"}}, {"type": "Feature", "properties": {"name": "Falls of Hills Creek Scenic Area", "type": "national_forest_scenic_area", "manager": "USFS Monongahela NF", "access": "public", "notes": "Three waterfalls on Hills Creek; boardwalk trail; FS Rd 39 off US 219 south of Marlinton"}, "geometry": {"type": "Point", "coordinates": [-80.2981, 38.0724]}}, {"type": "Feature", "properties": {"name": "Cranberry Glades Botanical Area", "type": "national_forest_botanical_area", "manager": "USFS Monongahela NF", "access": "public", "notes": "4 sphagnum bogs; boardwalk; adjacent to Cranberry Wilderness; near Richwood"}, "geometry": {"type": "Point", "coordinates": [-80.2664, 38.1828]}}, {"type": "Feature", "geometry": {"type": "Point", "coordinates": [-81.01343469082182, 37.87873483963024]}, "properties": {"name": "New River Gorge National Park and Preserve", "facility_type": "national_park", "agency": "NPS", "notes": "New River Gorge National Park and Preserve \u2014 designated 2020, 52,890 ac"}}]}